$GPVTG,128.74,T,,M,0.15,N,0.3,K*6F
$GPGGA,125251.000,4905.6995,N,00826.0191,E,1,09,1.0,118.5,M,47.9,M,,0000*5D
$GPGSA,A,3,15,22,04,09,02,17,26,12,27,,,,1.4,1.0,1.0*38
$GPRMC,125251.000,A,4905.6995,N,00826.0191,E,0.22,170.21,100809,,*08
$GPVTG,170.21,T,,M,0.22,N,0.4,K*61
$GPGGA,125252.000,4905.6993,N,00826.0202,E,1,09,1.0,118.9,M,47.9,M,,0000*5D
$GPGSA,A,3,15,22,04,09,02,17,26,12,27,,,,1.4,1.0,1.0*38
$GPRMC,125252.000,A,4905.6993,N,00826.0202,E,0.16,306.48,100809,,*0F
$GPVTG,306.48,T,,M,0.16,N,0.3,K*6D
$GPGGA,125253.000,4905.6992,N,00826.0211,E,1,09,1.0,119.0,M,47.9,M,,0000*57
$GPGSA,A,3,15,22,04,09,02,17,26,12,27,,,,1.4,1.0,1.0*38
$GPRMC,125253.000,A,4905.6992,N,00826.0211,E,0.21,243.94,100809,,*08
$GPVTG,243.94,T,,M,0.21,N,0.4,K*6F
$GPGGA,125254.000,4905.6991,N,00826.0212,E,1,09,1.0,118.9,M,47.9,M,,0000*58
$GPGSA,A,3,15,22,04,09,02,17,26,12,27,,,,1.4,1.0,1.0*38
$GPRMC,125254.000,A,4905.6991,N,00826.0212,E,0.33,307.88,100809,,*00
$GPVTG,307.88,T,,M,0.33,N,0.6,K*62
$GPGGA,125255.000,4905.6990,N,00826.0211,E,1,09,1.0,119.2,M,47.9,M,,0000*51
$GPGSA,A,3,15,22,04,09,02,17,26,12,27,,,,1.4,1.0,1.0*38
$GPGSV,3,1,11,12,72,263,26,09,68,117,31,26,56,253,28,27,55,120,39*79
$GPGSV,3,2,11,30,37,255,22,14,34,308,19,17,17,041,33,04,13,091,35*71
$GPGSV,3,3,11,22,07,268,18,02,07,121,27,15,05,170,23*4F
$GPRMC,125255.000,A,4905.6990,N,00826.0211,E,0.33,291.35,100809,,*0B
$GPVTG,291.35,T,,M,0.33,N,0.6,K*6A
$GPGGA,125256.000,4905.6991,N,00826.0210,E,1,09,1.0,119.5,M,47.9,M,,0000*55
$GPGSA,A,3,15,22,04,09,02,17,26,12,27,,,,1.4,1.0,1.0*38
$GPRMC,125256.000,A,4905.6991,N,00826.0210,E,0.34,296.18,100809,,*07
$GPVTG,296.18,T,,M,0.34,N,0.6,K*65
$GPGGA,125257.000,4905.6993,N,00826.0212,E,1,09,1.0,119.3,M,47.9,M,,0000*52
$GPGSA,A,3,15,22,04,09,02,17,26,12,27,,,,1.4,1.0,1.0*38
$GPRMC,125257.000,A,4905.6993,N,00826.0212,E,0.43,306.92,100809,,*0C
$GPVTG,306.92,T,,M,0.43,N,0.8,K*61
$GPGGA,125258.000,4905.6995,N,00826.0210,E,1,09,1.0,119.1,M,47.9,M,,0000*5B
$GPGSA,A,3,15,22,04,09,02,17,26,12,27,,,,1.4,1.0,1.0*38
$GPRMC,125258.000,A,4905.6995,N,00826.0210,E,0.43,267.89,100809,,*0B
$GPVTG,267.89,T,,M,0.43,N,0.8,K*6D
$GPGGA,125259.000,4905.6994,N,00826.0207,E,1,09,1.0,118.8,M,47.9,M,,0000*55
$GPGSA,A,3,15,22,04,09,02,17,26,12,27,,,,1.4,1.0,1.0*38
$GPRMC,125259.000,A,4905.6994,N,00826.0207,E,0.50,265.98,100809,,*0D
$GPVTG,265.98,T,,M,0.50,N,0.9,K*6C
$GPGGA,125300.000,4905.6996,N,00826.0205,E,1,09,1.0,118.7,M,47.9,M,,0000*57
$GPGSA,A,3,15,22,04,09,02,17,26,12,27,,,,1.4,1.0,1.0*38
$GPGSV,3,1,11,12,72,263,26,09,68,117,31,26,56,253,26,27,55,120,39*77
$GPGSV,3,2,11,30,37,255,22,14,34,308,20,17,17,041,33,04,13,091,35*7B
$GPGSV,3,3,11,22,07,268,18,02,07,121,27,15,05,170,24*48
$GPRMC,125300.000,A,4905.6996,N,00826.0205,E,0.54,291.73,100809,,*0A
$GPVTG,291.73,T,,M,0.54,N,1.0,K*6E
$GPGGA,125301.000,4905.6997,N,00826.0203,E,1,09,1.0,118.6,M,47.9,M,,0000*50
$GPGSA,A,3,15,22,04,09,02,17,26,12,27,,,,1.4,1.0,1.0*38
$GPRMC,125301.000,A,4905.6997,N,00826.0203,E,0.55,298.66,100809,,*00
$GPVTG,298.66,T,,M,0.55,N,1.0,K*62
$GPGGA,125302.000,4905.6999,N,00826.0198,E,1,09,1.0,118.6,M,47.9,M,,0000*5C
$GPGSA,A,3,15,22,04,09,02,17,26,12,27,,,,1.4,1.0,1.0*38
$GPRMC,125302.000,A,4905.6999,N,00826.0198,E,0.56,290.62,100809,,*03
$GPVTG,290.62,T,,M,0.56,N,1.0,K*6D
$GPGGA,125303.000,4905.6999,N,00826.0195,E,1,09,1.0,118.6,M,47.9,M,,0000*50
$GPGSA,A,3,15,22,04,09,02,17,26,12,27,,,,1.4,1.0,1.0*38
$GPRMC,125303.000,A,4905.6999,N,00826.0195,E,0.27,268.17,100809,,*0C
$GPVTG,268.17,T,,M,0.27,N,0.5,K*6A
$GPGGA,125304.000,4905.7001,N,00826.0189,E,1,09,1.0,117.8,M,47.9,M,,0000*52
$GPGSA,A,3,15,22,04,09,02,17,26,12,27,,,,1.4,1.0,1.0*38
$GPRMC,125304.000,A,4905.7001,N,00826.0189,E,0.32,263.95,100809,,*0A
$GPVTG,263.95,T,,M,0.32,N,0.6,K*6C
$GPGGA,125305.000,4905.7002,N,00826.0185,E,1,09,1.0,117.2,M,47.9,M,,0000*56
$GPGSA,A,3,15,22,04,09,02,17,26,12,27,,,,1.4,1.0,1.0*38
$GPGSV,3,1,11,12,72,263,25,09,68,117,32,26,56,253,25,27,55,120,39*74
$GPGSV,3,2,11,30,37,255,23,14,34,308,19,17,17,041,32,04,13,091,35*71
$GPGSV,3,3,11,22,07,268,18,02,07,121,27,15,05,170,24*48
$GPRMC,125305.000,A,4905.7002,N,00826.0185,E,0.13,291.51,100809,,*02
$GPVTG,291.51,T,,M,0.13,N,0.2,K*6E
$GPGGA,125306.000,4905.7003,N,00826.0181,E,1,09,1.0,116.8,M,47.9,M,,0000*5B
$GPGSA,A,3,15,22,04,09,02,17,26,12,27,,,,1.4,1.0,1.0*38
$GPRMC,125306.000,A,4905.7003,N,00826.0181,E,0.15,59.55,100809,,*30
$GPVTG,59.55,T,,M,0.15,N,0.3,K*5B
$GPGGA,125307.000,4905.7005,N,00826.0179,E,1,09,1.0,116.5,M,47.9,M,,0000*56
$GPGSA,A,3,15,22,04,09,02,17,26,12,27,,,,1.4,1.0,1.0*38
$GPRMC,125307.000,A,4905.7005,N,00826.0179,E,0.12,295.09,100809,,*0C
$GPVTG,295.09,T,,M,0.12,N,0.2,K*66
$GPGGA,125308.000,4905.7006,N,00826.0174,E,1,09,1.0,116.0,M,47.9,M,,0000*52
$GPGSA,A,3,15,22,04,09,02,17,26,12,27,,,,1.4,1.0,1.0*38
$GPRMC,125308.000,A,4905.7006,N,00826.0174,E,0.15,305.37,100809,,*0F
$GPVTG,305.37,T,,M,0.15,N,0.3,K*65
$GPGGA,125309.000,4905.7005,N,00826.0171,E,1,09,1.0,115.9,M,47.9,M,,0000*5F
$GPGSA,A,3,15,22,04,09,02,17,26,12,27,,,,1.4,1.0,1.0*38
$GPRMC,125309.000,A,4905.7005,N,00826.0171,E,0.39,274.16,100809,,*02
$GPVTG,274.16,T,,M,0.39,N,0.7,K*6B
$GPGGA,125310.000,4905.7004,N,00826.0166,E,1,09,1.0,115.6,M,47.9,M,,0000*5F
$GPGSA,A,3,15,22,04,09,02,17,26,12,27,,,,1.4,1.0,1.0*38
$GPGSV,3,1,11,12,72,264,24,09,68,117,34,26,56,253,25,27,55,120,39*74
$GPGSV,3,2,11,30,37,255,23,14,34,308,18,17,16,041,32,04,14,090,36*74
$GPGSV,3,3,11,02,08,121,18,22,07,268,19,15,05,170,24*4A
$GPRMC,125310.000,A,4905.7004,N,00826.0166,E,0.16,240.17,100809,,*06
$GPVTG,240.17,T,,M,0.16,N,0.3,K*64
$GPGGA,125311.000,4905.7003,N,00826.0165,E,1,09,1.0,115.6,M,47.9,M,,0000*5A
$GPGSA,A,3,15,22,04,09,02,17,26,12,27,,,,1.4,1.0,1.0*38
$GPRMC,125311.000,A,4905.7003,N,00826.0165,E,0.11,161.89,100809,,*03
$GPVTG,161.89,T,,M,0.11,N,0.2,K*65
$GPGGA,125312.000,4905.7002,N,00826.0166,E,1,09,1.0,115.7,M,47.9,M,,0000*5A
$GPGSA,A,3,15,22,04,09,02,17,26,12,27,,,,1.4,1.0,1.0*38
$GPRMC,125312.000,A,4905.7002,N,00826.0166,E,0.28,121.93,100809,,*07
$GPVTG,121.93,T,,M,0.28,N,0.5,K*67
$GPGGA,125313.000,4905.7002,N,00826.0166,E,1,09,1.0,115.9,M,47.9,M,,0000*55
$GPGSA,A,3,15,22,04,09,02,17,26,12,27,,,,1.4,1.0,1.0*38
$GPRMC,125313.000,A,4905.7002,N,00826.0166,E,0.12,339.40,100809,,*0A
$GPVTG,339.40,T,,M,0.12,N,0.2,K*6C
$GPGGA,125314.000,4905.7002,N,00826.0160,E,1,09,1.0,115.8,M,47.9,M,,0000*55
$GPGSA,A,3,15,22,04,09,02,17,26,12,27,,,,1.4,1.0,1.0*38
$GPRMC,125314.000,A,4905.7002,N,00826.0160,E,0.32,300.45,100809,,*06
$GPVTG,300.45,T,,M,0.32,N,0.6,K*65
$GPGGA,125315.000,4905.7002,N,00826.0153,E,1,09,1.0,115.6,M,47.9,M,,0000*5A
$GPGSA,A,3,15,22,04,09,02,17,26,12,27,,,,1.4,1.0,1.0*38
$GPGSV,3,1,11,12,72,264,23,09,68,117,35,26,56,253,24,27,55,120,39*73
$GPGSV,3,2,11,30,37,255,24,14,34,308,17,17,16,041,31,04,14,090,36*7F
$GPGSV,3,3,11,02,08,121,18,22,07,268,19,15,05,170,25*4B
$GPRMC,125315.000,A,4905.7002,N,00826.0153,E,0.27,303.11,100809,,*01
$GPVTG,303.11,T,,M,0.27,N,0.5,K*60
$GPGGA,125316.000,4905.7002,N,00826.0151,E,1,09,1.0,115.6,M,47.9,M,,0000*5B
$GPGSA,A,3,15,22,04,09,02,17,26,12,27,,,,1.4,1.0,1.0*38
$GPRMC,125316.000,A,4905.7002,N,00826.0151,E,0.11,8.49,100809,,*00
$GPVTG,8.49,T,,M,0.11,N,0.2,K*67
$GPGGA,125317.000,4905.7002,N,00826.0150,E,1,09,1.0,115.6,M,47.9,M,,0000*5B
$GPGSA,A,3,15,22,04,09,02,17,26,12,27,,,,1.4,1.0,1.0*38
$GPRMC,125317.000,A,4905.7002,N,00826.0150,E,0.10,275.53,100809,,*02
$GPVTG,275.53,T,,M,0.10,N,0.2,K*65
$GPGGA,125318.000,4905.7002,N,00826.0148,E,1,09,1.0,115.5,M,47.9,M,,0000*5E
$GPGSA,A,3,15,22,04,09,02,17,26,12,27,,,,1.4,1.0,1.0*38
$GPRMC,125318.000,A,4905.7002,N,00826.0148,E,0.16,303.01,100809,,*05
$GPVTG,303.01,T,,M,0.16,N,0.3,K*65
$GPGGA,125319.000,4905.7001,N,00826.0148,E,1,09,1.0,115.5,M,47.9,M,,0000*5C
$GPGSA,A,3,15,22,04,09,02,17,26,12,27,,,,1.4,1.0,1.0*38
$GPRMC,125319.000,A,4905.7001,N,00826.0148,E,0.21,296.82,100809,,*05
$GPVTG,296.82,T,,M,0.21,N,0.4,K*60
$GPGGA,125320.000,4905.7001,N,00826.0148,E,1,09,1.0,115.4,M,47.9,M,,0000*57
$GPGSA,A,3,15,22,04,09,02,17,26,12,27,,,,1.4,1.0,1.0*38
$GPGSV,3,1,11,12,72,264,23,09,68,117,35,26,56,253,23,27,55,120,40*7A
$GPGSV,3,2,11,30,37,255,24,14,34,308,16,17,16,041,31,04,14,090,36*7E
$GPGSV,3,3,11,02,08,121,22,22,07,268,20,15,05,170,25*48
$GPRMC,125320.000,A,4905.7001,N,00826.0148,E,0.21,293.71,100809,,*06
$GPVTG,293.71,T,,M,0.21,N,0.4,K*69
$GPGGA,125321.000,4905.7000,N,00826.0149,E,1,09,1.0,115.4,M,47.9,M,,0000*56
$GPGSA,A,3,15,22,04,09,02,17,26,12,27,,,,1.4,1.0,1.0*38
$GPRMC,125321.000,A,4905.7000,N,00826.0149,E,0.13,335.19,100809,,*05
$GPVTG,335.19,T,,M,0.13,N,0.2,K*6D
$GPGGA,125322.000,4905.7000,N,00826.0148,E,1,09,1.0,115.3,M,47.9,M,,0000*53
$GPGSA,A,3,15,22,04,09,02,17,26,12,27,,,,1.4,1.0,1.0*38
$GPRMC,125322.000,A,4905.7000,N,00826.0148,E,0.41,276.49,100809,,*03
$GPVTG,276.49,T,,M,0.41,N,0.8,K*63
$GPGGA,125323.000,4905.6999,N,00826.0148,E,1,09,1.0,115.3,M,47.9,M,,0000*5A
$GPGSA,A,3,15,22,04,09,02,17,26,12,27,,,,1.4,1.0,1.0*38
$GPRMC,125323.000,A,4905.6999,N,00826.0148,E,0.16,281.78,100809,,*02
$GPVTG,281.78,T,,M,0.16,N,0.3,K*60
$GPGGA,125324.000,4905.6998,N,00826.0148,E,1,09,1.0,115.2,M,47.9,M,,0000*5D
$GPGSA,A,3,15,22,04,09,02,17,26,12,27,,,,1.4,1.0,1.0*38
$GPRMC,125324.000,A,4905.6998,N,00826.0148,E,0.05,292.54,100809,,*0A
$GPVTG,292.54,T,,M,0.05,N,0.1,K*6C
$GPGGA,125325.000,4905.6997,N,00826.0149,E,1,09,1.0,115.0,M,47.9,M,,0000*50
$GPGSA,A,3,15,22,04,09,02,17,26,12,27,,,,1.4,1.0,1.0*38
$GPGSV,3,1,11,12,72,264,24,09,68,117,36,26,56,253,23,27,55,120,40*7E
$GPGSV,3,2,11,30,37,255,24,14,34,308,,17,16,041,31,04,14,090,35*7A
$GPGSV,3,3,11,02,08,121,25,22,07,268,20,15,05,170,24*4E
$GPRMC,125325.000,A,4905.6997,N,00826.0149,E,0.41,258.78,100809,,*0D
$GPVTG,258.78,T,,M,0.41,N,0.8,K*6D
$GPGGA,125326.000,4905.6995,N,00826.0148,E,1,09,1.0,114.7,M,47.9,M,,0000*56
$GPGSA,A,3,15,22,04,09,02,17,26,12,27,,,,1.4,1.0,1.0*38
$GPRMC,125326.000,A,4905.6995,N,00826.0148,E,0.23,276.89,100809,,*0B
$GPVTG,276.89,T,,M,0.23,N,0.4,K*67
$GPGGA,125327.000,4905.6993,N,00826.0153,E,1,09,1.0,114.5,M,47.9,M,,0000*59
$GPGSA,A,3,15,22,04,09,02,17,26,12,27,,,,1.4,1.0,1.0*38
$GPRMC,125327.000,A,4905.6993,N,00826.0153,E,0.09,343.33,100809,,*08
$GPVTG,343.33,T,,M,0.09,N,0.2,K*6F
$GPGGA,125328.000,4905.6993,N,00826.0154,E,1,09,1.0,114.4,M,47.9,M,,0000*50
$GPGSA,A,3,15,22,04,09,02,17,26,12,27,,,,1.4,1.0,1.0*38
$GPRMC,125328.000,A,4905.6993,N,00826.0154,E,0.05,55.70,100809,,*3F
$GPVTG,55.70,T,,M,0.05,N,0.1,K*53
$GPGGA,125329.000,4905.6990,N,00826.0162,E,1,09,1.0,114.2,M,47.9,M,,0000*51
$GPGSA,A,3,15,22,04,09,02,17,26,12,27,,,,1.4,1.0,1.0*38
$GPRMC,125329.000,A,4905.6990,N,00826.0162,E,0.25,291.34,100809,,*00
$GPVTG,291.34,T,,M,0.25,N,0.5,K*6F
$GPGGA,125330.000,4905.6988,N,00826.0169,E,1,09,1.0,114.0,M,47.9,M,,0000*59
$GPGSA,A,3,15,22,04,09,02,17,26,12,27,,,,1.4,1.0,1.0*38
$GPGSV,3,1,11,12,72,264,25,09,68,117,36,26,56,253,24,27,55,120,40*78
$GPGSV,3,2,11,30,37,255,23,14,34,308,,17,16,041,30,04,14,090,35*7C
$GPGSV,3,3,11,02,08,121,18,22,07,268,21,15,05,170,24*41
$GPRMC,125330.000,A,4905.6988,N,00826.0169,E,0.37,287.69,100809,,*06
$GPVTG,287.69,T,,M,0.37,N,0.7,K*61
$GPGGA,125331.000,4905.6987,N,00826.0176,E,1,09,1.0,114.1,M,47.9,M,,0000*58
$GPGSA,A,3,15,22,04,09,02,17,26,12,27,,,,1.4,1.0,1.0*38
$GPRMC,125331.000,A,4905.6987,N,00826.0176,E,0.41,306.62,100809,,*04
$GPVTG,306.62,T,,M,0.41,N,0.8,K*6C
$GPGGA,125332.000,4905.6986,N,00826.0183,E,1,09,1.0,114.2,M,47.9,M,,0000*53
$GPGSA,A,3,15,22,04,09,02,17,26,12,27,,,,1.4,1.0,1.0*38
$GPRMC,125332.000,A,4905.6986,N,00826.0183,E,0.27,8.68,100809,,*0B
$GPVTG,8.68,T,,M,0.27,N,0.5,K*66
$GPGGA,125333.000,4905.6986,N,00826.0192,E,1,09,1.0,114.4,M,47.9,M,,0000*54
$GPGSA,A,3,15,22,04,09,02,17,26,12,27,,,,1.4,1.0,1.0*38
$GPRMC,125333.000,A,4905.6986,N,00826.0192,E,0.65,85.28,100809,,*3D
$GPVTG,85.28,T,,M,0.65,N,1.2,K*57
$GPGGA,125334.000,4905.6985,N,00826.0200,E,1,09,1.0,114.5,M,47.9,M,,0000*59
$GPGSA,A,3,15,22,04,09,02,17,26,12,27,,,,1.4,1.0,1.0*38
$GPRMC,125334.000,A,4905.6985,N,00826.0200,E,0.35,98.34,100809,,*35
$GPVTG,98.34,T,,M,0.35,N,0.6,K*56
$GPGGA,125335.000,4905.6983,N,00826.0207,E,1,09,1.0,114.5,M,47.9,M,,0000*59
$GPGSA,A,3,15,22,04,09,02,17,26,12,27,,,,1.4,1.0,1.0*38
$GPGSV,3,1,11,12,72,264,25,09,68,117,36,26,56,253,23,27,55,120,41*7E
$GPGSV,3,2,11,30,37,255,23,14,34,308,,17,16,041,30,04,14,090,35*7C
$GPGSV,3,3,11,02,08,121,18,22,07,268,21,15,05,170,24*41
$GPRMC,125335.000,A,4905.6983,N,00826.0207,E,0.19,99.55,100809,,*3D
$GPVTG,99.55,T,,M,0.19,N,0.3,K*5B
$GPGGA,125336.000,4905.6982,N,00826.0212,E,1,09,1.0,114.5,M,47.9,M,,0000*5F
$GPGSA,A,3,15,22,04,09,02,17,26,12,27,,,,1.4,1.0,1.0*38
$GPRMC,125336.000,A,4905.6982,N,00826.0212,E,0.10,333.47,100809,,*02
$GPVTG,333.47,T,,M,0.10,N,0.2,K*63
$GPGGA,125337.000,4905.6982,N,00826.0217,E,1,09,1.0,114.7,M,47.9,M,,0000*59
$GPGSA,A,3,15,22,04,09,02,17,26,12,27,,,,1.4,1.0,1.0*38
$GPRMC,125337.000,A,4905.6982,N,00826.0217,E,0.24,50.52,100809,,*33
$GPVTG,50.52,T,,M,0.24,N,0.4,K*50
$GPGGA,125338.000,4905.6982,N,00826.0223,E,1,09,1.0,115.0,M,47.9,M,,0000*57
$GPGSA,A,3,15,22,04,09,02,17,26,12,27,,,,1.4,1.0,1.0*38
$GPRMC,125338.000,A,4905.6982,N,00826.0223,E,0.22,31.15,100809,,*39
$GPVTG,31.15,T,,M,0.22,N,0.4,K*52
$GPGGA,125339.000,4905.6983,N,00826.0227,E,1,09,1.0,115.2,M,47.9,M,,0000*51
$GPGSA,A,3,15,22,04,09,02,17,26,12,27,,,,1.4,1.0,1.0*38
$GPRMC,125339.000,A,4905.6983,N,00826.0227,E,0.25,345.12,100809,,*0D
$GPVTG,345.12,T,,M,0.25,N,0.5,K*63
$GPGGA,125340.000,4905.6982,N,00826.0231,E,1,09,1.0,115.2,M,47.9,M,,0000*59
$GPGSA,A,3,15,22,04,09,02,17,26,12,27,,,,1.4,1.0,1.0*38
$GPGSV,3,1,11,12,72,264,26,09,68,117,36,26,56,253,23,27,55,120,41*7D
$GPGSV,3,2,11,30,37,255,22,14,34,308,,17,16,041,31,04,14,090,35*7C
$GPGSV,3,3,11,02,08,121,19,22,07,268,21,15,05,170,23*47
$GPRMC,125340.000,A,4905.6982,N,00826.0231,E,0.26,109.29,100809,,*04
$GPVTG,109.29,T,,M,0.26,N,0.5,K*62
$GPGGA,125341.000,4905.6980,N,00826.0234,E,1,09,1.0,115.1,M,47.9,M,,0000*5C
$GPGSA,A,3,15,22,04,09,02,17,26,12,27,,,,1.4,1.0,1.0*38
$GPRMC,125341.000,A,4905.6980,N,00826.0234,E,0.28,228.90,100809,,*0E
$GPVTG,228.90,T,,M,0.28,N,0.5,K*6E
$GPGGA,125342.000,4905.6978,N,00826.0236,E,1,09,1.0,114.9,M,47.9,M,,0000*53
$GPGSA,A,3,15,22,04,09,02,17,26,12,27,,,,1.4,1.0,1.0*38
$GPRMC,125342.000,A,4905.6978,N,00826.0236,E,0.39,247.33,100809,,*08
$GPVTG,247.33,T,,M,0.39,N,0.7,K*6C
$GPGGA,125343.000,4905.6978,N,00826.0237,E,1,09,1.0,114.8,M,47.9,M,,0000*52
$GPGSA,A,3,15,22,04,09,02,17,26,12,27,,,,1.4,1.0,1.0*38
$GPRMC,125343.000,A,4905.6978,N,00826.0237,E,0.41,261.12,100809,,*00
$GPVTG,261.12,T,,M,0.41,N,0.8,K*6B
$GPGGA,125344.000,4905.6977,N,00826.0238,E,1,09,1.0,114.6,M,47.9,M,,0000*5B
$GPGSA,A,3,15,22,04,09,02,17,26,12,27,,,,1.4,1.0,1.0*38
$GPRMC,125344.000,A,4905.6977,N,00826.0238,E,0.70,264.15,100809,,*07
$GPVTG,264.15,T,,M,0.70,N,1.3,K*61
$GPGGA,125345.000,4905.6976,N,00826.0239,E,1,09,1.0,114.6,M,47.9,M,,0000*5A
$GPGSA,A,3,15,22,04,09,02,17,26,12,27,,,,1.4,1.0,1.0*38
$GPGSV,3,1,11,12,72,264,27,09,68,117,36,26,56,253,23,27,55,120,42*7F
$GPGSV,3,2,11,30,37,255,22,14,34,308,,17,16,041,31,04,14,090,35*7C
$GPGSV,3,3,11,02,08,121,21,22,07,268,20,15,05,170,23*4D
$GPRMC,125345.000,A,4905.6976,N,00826.0239,E,0.24,281.20,100809,,*0A
$GPVTG,281.20,T,,M,0.24,N,0.4,K*6B
$GPGGA,125346.000,4905.6976,N,00826.0242,E,1,09,1.0,114.6,M,47.9,M,,0000*55
$GPGSA,A,3,15,22,04,09,02,17,26,12,27,,,,1.4,1.0,1.0*38
$GPRMC,125346.000,A,4905.6976,N,00826.0242,E,0.26,129.23,100809,,*05
$GPVTG,129.23,T,,M,0.26,N,0.5,K*6A
$GPGGA,125347.000,4905.6975,N,00826.0244,E,1,09,1.0,114.7,M,47.9,M,,0000*50
$GPGSA,A,3,15,22,04,09,02,17,26,12,27,,,,1.4,1.0,1.0*38
$GPRMC,125347.000,A,4905.6975,N,00826.0244,E,0.15,300.27,100809,,*0C
$GPVTG,300.27,T,,M,0.15,N,0.3,K*61
$GPGGA,125348.000,4905.6975,N,00826.0246,E,1,09,1.0,114.7,M,47.9,M,,0000*5D
$GPGSA,A,3,15,22,04,09,02,17,26,12,27,,,,1.4,1.0,1.0*38
$GPRMC,125348.000,A,4905.6975,N,00826.0246,E,0.17,274.68,100809,,*0A
$GPVTG,274.68,T,,M,0.17,N,0.3,K*6A
$GPGGA,125349.000,4905.6975,N,00826.0247,E,1,09,1.0,114.6,M,47.9,M,,0000*5C
$GPGSA,A,3,15,22,04,09,02,17,26,12,27,,,,1.4,1.0,1.0*38
$GPRMC,125349.000,A,4905.6975,N,00826.0247,E,0.31,230.68,100809,,*0E
$GPVTG,230.68,T,,M,0.31,N,0.6,K*6B
$GPGGA,125350.000,4905.6974,N,00826.0250,E,1,09,1.0,114.7,M,47.9,M,,0000*52
$GPGSA,A,3,15,22,04,09,02,17,26,12,27,,,,1.4,1.0,1.0*38
$GPGSV,3,1,11,12,72,264,28,09,68,117,35,26,56,253,23,27,55,120,43*72
$GPGSV,3,2,11,30,37,255,21,14,34,308,23,17,16,041,32,04,14,090,34*7C
$GPGSV,3,3,11,02,08,121,24,22,07,268,19,15,05,170,22*43
$GPRMC,125350.000,A,4905.6974,N,00826.0250,E,0.12,87.95,100809,,*3C
$GPVTG,87.95,T,,M,0.12,N,0.2,K*52
$GPGGA,125351.000,4905.6975,N,00826.0252,E,1,09,1.0,114.9,M,47.9,M,,0000*5E
$GPGSA,A,3,15,22,04,09,02,17,26,12,27,,,,1.4,1.0,1.0*38
$GPRMC,125351.000,A,4905.6975,N,00826.0252,E,0.19,1.33,100809,,*07
$GPVTG,1.33,T,,M,0.19,N,0.4,K*6D
$GPGGA,125352.000,4905.6976,N,00826.0254,E,1,09,1.0,115.1,M,47.9,M,,0000*51
$GPGSA,A,3,15,22,04,09,02,17,26,12,27,,,,1.4,1.0,1.0*38
$GPRMC,125352.000,A,4905.6976,N,00826.0254,E,0.44,313.84,100809,,*05
$GPVTG,313.84,T,,M,0.44,N,0.8,K*65
$GPGGA,125353.000,4905.6976,N,00826.0255,E,1,09,1.0,115.3,M,47.9,M,,0000*53
$GPGSA,A,3,15,22,04,09,02,17,26,12,27,,,,1.4,1.0,1.0*38
$GPRMC,125353.000,A,4905.6976,N,00826.0255,E,0.30,313.81,100809,,*03
$GPVTG,313.81,T,,M,0.30,N,0.6,K*6D
$GPGGA,125354.000,4905.6977,N,00826.0257,E,1,09,1.0,115.6,M,47.9,M,,0000*52
$GPGSA,A,3,15,22,04,09,02,17,26,12,27,,,,1.4,1.0,1.0*38
$GPRMC,125354.000,A,4905.6977,N,00826.0257,E,0.23,50.13,100809,,*3A
$GPVTG,50.13,T,,M,0.23,N,0.4,K*52
$GPGGA,125355.000,4905.6976,N,00826.0260,E,1,09,1.0,115.5,M,47.9,M,,0000*55
$GPGSA,A,3,15,22,04,09,02,17,26,12,27,,,,1.4,1.0,1.0*38
$GPGSV,3,1,11,12,72,264,29,09,68,117,35,26,56,253,20,27,55,120,43*70
$GPGSV,3,2,11,30,37,255,16,14,34,308,23,17,16,041,32,04,14,090,34*78
$GPGSV,3,3,11,02,08,121,23,22,07,268,19,15,05,170,22*44
$GPRMC,125355.000,A,4905.6976,N,00826.0260,E,0.22,37.10,100809,,*3D
$GPVTG,37.10,T,,M,0.22,N,0.4,K*51
$GPGGA,125356.000,4905.6974,N,00826.0262,E,1,09,1.0,115.1,M,47.9,M,,0000*52
$GPGSA,A,3,15,22,04,09,02,17,26,12,27,,,,1.4,1.0,1.0*38
$GPRMC,125356.000,A,4905.6974,N,00826.0262,E,0.31,284.36,100809,,*02
$GPVTG,284.36,T,,M,0.31,N,0.6,K*6F
$GPGGA,125357.000,4905.6976,N,00826.0263,E,1,09,1.0,115.6,M,47.9,M,,0000*57
$GPGSA,A,3,15,22,04,09,02,17,26,12,27,,,,1.4,1.0,1.0*38
$GPRMC,125357.000,A,4905.6976,N,00826.0263,E,0.49,315.38,100809,,*08
$GPVTG,315.38,T,,M,0.49,N,0.9,K*68
$GPGGA,125358.000,4905.6978,N,00826.0264,E,1,09,1.0,116.1,M,47.9,M,,0000*55
$GPGSA,A,3,15,22,04,09,02,17,26,12,27,,,,1.4,1.0,1.0*38
$GPRMC,125358.000,A,4905.6978,N,00826.0264,E,0.50,305.20,100809,,*0E
$GPVTG,305.20,T,,M,0.50,N,0.9,K*68
$GPGGA,125359.000,4905.6978,N,00826.0265,E,1,09,1.0,116.3,M,47.9,M,,0000*57
$GPGSA,A,3,15,22,04,09,02,17,26,12,27,,,,1.4,1.0,1.0*38
$GPRMC,125359.000,A,4905.6978,N,00826.0265,E,0.33,252.99,100809,,*0A
$GPVTG,252.99,T,,M,0.33,N,0.6,K*63
$GPGGA,125400.000,4905.6978,N,00826.0266,E,1,09,1.0,116.4,M,47.9,M,,0000*58
$GPGSA,A,3,15,22,04,09,02,17,26,12,27,,,,1.4,1.0,1.0*38
$GPGSV,3,1,11,12,72,264,29,09,68,117,35,26,56,253,16,27,55,120,44*72
$GPGSV,3,2,11,30,37,255,16,14,34,308,,17,16,041,33,04,14,090,33*7F
$GPGSV,3,3,11,02,08,121,18,22,07,268,19,15,05,170,22*4C
$GPRMC,125400.000,A,4905.6978,N,00826.0266,E,0.22,272.58,100809,,*0D
$GPVTG,272.58,T,,M,0.22,N,0.4,K*6E
$GPGGA,125401.000,4905.6978,N,00826.0267,E,1,09,1.0,116.5,M,47.9,M,,0000*59
$GPGSA,A,3,15,22,04,09,02,17,26,12,27,,,,1.4,1.0,1.0*38
$GPRMC,125401.000,A,4905.6978,N,00826.0267,E,0.30,65.04,100809,,*33
$GPVTG,65.04,T,,M,0.30,N,0.6,K*52
$GPGGA,125402.000,4905.6977,N,00826.0270,E,1,09,1.0,116.6,M,47.9,M,,0000*50
$GPGSA,A,3,15,22,04,09,02,17,26,12,27,,,,1.4,1.0,1.0*38
$GPRMC,125402.000,A,4905.6977,N,00826.0270,E,0.36,98.36,100809,,*3C
$GPVTG,98.36,T,,M,0.36,N,0.7,K*56
$GPGGA,125403.000,4905.6978,N,00826.0273,E,1,09,1.0,117.1,M,47.9,M,,0000*5B
$GPGSA,A,3,15,22,04,09,02,17,26,12,27,,,,1.4,1.0,1.0*38
$GPRMC,125403.000,A,4905.6978,N,00826.0273,E,0.32,37.39,100809,,*3F
$GPVTG,37.39,T,,M,0.32,N,0.6,K*59
$GPGGA,125404.000,4905.6979,N,00826.0276,E,1,09,1.0,117.5,M,47.9,M,,0000*5C
$GPGSA,A,3,15,22,04,09,02,17,26,12,27,,,,1.4,1.0,1.0*38
$GPRMC,125404.000,A,4905.6979,N,00826.0276,E,0.42,61.20,100809,,*30
$GPVTG,61.20,T,,M,0.42,N,0.8,K*5B
$GPGGA,125405.000,4905.6980,N,00826.0279,E,1,09,1.0,117.8,M,47.9,M,,0000*59
$GPGSA,A,3,15,22,04,09,02,17,26,12,27,,,,1.4,1.0,1.0*38
$GPGSV,3,1,11,12,72,264,29,09,68,117,34,26,56,253,15,27,55,120,44*70
$GPGSV,3,2,11,30,37,255,15,14,34,308,,17,16,041,33,04,14,090,33*7C
$GPGSV,3,3,11,02,08,121,17,22,07,268,19,15,05,170,22*43
$GPRMC,125405.000,A,4905.6980,N,00826.0279,E,0.39,36.16,100809,,*33
$GPVTG,36.16,T,,M,0.39,N,0.7,K*5F
$GPGGA,125406.000,4905.6981,N,00826.0281,E,1,09,1.0,118.0,M,47.9,M,,0000*5B
$GPGSA,A,3,15,22,04,09,02,17,26,12,27,,,,1.4,1.0,1.0*38
$GPRMC,125406.000,A,4905.6981,N,00826.0281,E,0.17,51.09,100809,,*35
$GPVTG,51.09,T,,M,0.17,N,0.3,K*58
$GPGGA,125407.000,4905.6982,N,00826.0282,E,1,09,1.0,118.3,M,47.9,M,,0000*59
$GPGSA,A,3,15,22,04,09,02,17,26,12,27,,,,1.4,1.0,1.0*38
$GPRMC,125407.000,A,4905.6982,N,00826.0282,E,0.27,297.33,100809,,*06
$GPVTG,297.33,T,,M,0.27,N,0.5,K*6C
$GPGGA,125408.000,4905.6982,N,00826.0282,E,1,09,1.0,118.5,M,47.9,M,,0000*50
$GPGSA,A,3,15,22,04,09,02,17,26,12,27,,,,1.4,1.0,1.0*38
$GPRMC,125408.000,A,4905.6982,N,00826.0282,E,0.42,286.68,100809,,*04
$GPVTG,286.68,T,,M,0.42,N,0.8,K*6C
$GPGGA,125409.000,4905.6982,N,00826.0282,E,1,09,1.0,118.5,M,47.9,M,,0000*51
$GPGSA,A,3,15,22,04,09,02,17,26,12,27,,,,1.4,1.0,1.0*38
$GPRMC,125409.000,A,4905.6982,N,00826.0282,E,0.37,296.49,100809,,*05
$GPVTG,296.49,T,,M,0.37,N,0.7,K*63
$GPGGA,125410.000,4905.6983,N,00826.0280,E,1,09,1.0,118.7,M,47.9,M,,0000*58
$GPGSA,A,3,15,22,04,09,02,17,26,12,27,,,,1.4,1.0,1.0*38
$GPGSV,3,1,11,12,72,264,27,09,68,117,34,26,56,253,15,27,55,120,44*7E
$GPGSV,3,2,11,30,37,255,16,14,34,308,,17,16,041,33,04,14,090,32*7E
$GPGSV,3,3,11,02,08,121,20,22,07,268,19,15,05,170,23*46
$GPRMC,125410.000,A,4905.6983,N,00826.0280,E,0.39,309.75,100809,,*08
$GPVTG,309.75,T,,M,0.39,N,0.7,K*65
$GPGGA,125411.000,4905.6982,N,00826.0282,E,1,09,1.0,118.6,M,47.9,M,,0000*5B
$GPGSA,A,3,15,22,04,09,02,17,26,12,27,,,,1.4,1.0,1.0*38
$GPRMC,125411.000,A,4905.6982,N,00826.0282,E,0.41,115.70,100809,,*0F
$GPVTG,115.70,T,,M,0.41,N,0.8,K*6F
$GPGGA,125412.000,4905.6982,N,00826.0286,E,1,09,1.0,118.7,M,47.9,M,,0000*5D
$GPGSA,A,3,15,22,04,09,02,17,26,12,27,,,,1.4,1.0,1.0*38
$GPRMC,125412.000,A,4905.6982,N,00826.0286,E,0.70,103.80,100809,,*02
$GPVTG,103.80,T,,M,0.70,N,1.3,K*6F
$GPGGA,125413.000,4905.6981,N,00826.0290,E,1,09,1.0,118.8,M,47.9,M,,0000*57
$GPGSA,A,3,15,22,04,09,02,17,26,12,27,,,,1.4,1.0,1.0*38
$GPRMC,125413.000,A,4905.6981,N,00826.0290,E,0.59,98.50,100809,,*32
$GPVTG,98.50,T,,M,0.59,N,1.1,K*58
$GPGGA,125414.000,4905.6982,N,00826.0292,E,1,09,1.0,119.2,M,47.9,M,,0000*5A
$GPGSA,A,3,15,22,04,09,02,17,26,12,27,,,,1.4,1.0,1.0*38
$GPRMC,125414.000,A,4905.6982,N,00826.0292,E,0.28,73.41,100809,,*37
$GPVTG,73.41,T,,M,0.28,N,0.5,K*5E
$GPGGA,125415.000,4905.6983,N,00826.0293,E,1,09,1.0,119.5,M,47.9,M,,0000*5C
$GPGSA,A,3,15,22,04,09,02,17,26,12,27,,,,1.4,1.0,1.0*38
$GPGSV,3,1,11,12,72,264,26,09,68,117,34,26,56,253,23,27,55,120,43*7D
$GPGSV,3,2,11,30,37,255,17,14,34,308,,17,16,041,33,04,14,090,32*7F
$GPGSV,3,3,11,02,08,121,25,22,07,268,18,15,05,170,23*42
$GPRMC,125415.000,A,4905.6983,N,00826.0293,E,0.27,28.89,100809,,*33
$GPVTG,28.89,T,,M,0.27,N,0.5,K*5B
$GPGGA,125416.000,4905.6984,N,00826.0294,E,1,09,1.0,119.9,M,47.9,M,,0000*53
$GPGSA,A,3,15,22,04,09,02,17,26,12,27,,,,1.4,1.0,1.0*38
$GPRMC,125416.000,A,4905.6984,N,00826.0294,E,0.21,35.15,100809,,*3F
$GPVTG,35.15,T,,M,0.21,N,0.4,K*55
$GPGGA,125417.000,4905.6985,N,00826.0294,E,1,09,1.0,120.2,M,47.9,M,,0000*52
$GPGSA,A,3,15,22,04,09,02,17,26,12,27,,,,1.4,1.0,1.0*38
$GPRMC,125417.000,A,4905.6985,N,00826.0294,E,0.24,321.42,100809,,*0E
$GPVTG,321.42,T,,M,0.24,N,0.4,K*64
$GPGGA,125418.000,4905.6986,N,00826.0298,E,1,09,1.0,120.6,M,47.9,M,,0000*56
$GPGSA,A,3,15,22,04,09,02,17,26,12,27,,,,1.4,1.0,1.0*38
$GPRMC,125418.000,A,4905.6986,N,00826.0298,E,0.31,29.71,100809,,*31
$GPVTG,29.71,T,,M,0.31,N,0.6,K*59
$GPGGA,125419.000,4905.6987,N,00826.0302,E,1,09,1.0,121.1,M,47.9,M,,0000*52
$GPGSA,A,3,15,22,04,09,02,17,26,12,27,,,,1.4,1.0,1.0*38
$GPRMC,125419.000,A,4905.6987,N,00826.0302,E,0.32,32.60,100809,,*3A
$GPVTG,32.60,T,,M,0.32,N,0.6,K*50
$GPGGA,125420.000,4905.6989,N,00826.0304,E,1,09,1.0,121.6,M,47.9,M,,0000*57
$GPGSA,A,3,15,22,04,09,02,17,26,12,27,,,,1.4,1.0,1.0*38
$GPGSV,3,1,11,12,72,264,24,09,68,117,34,26,56,253,23,27,55,120,43*7F
$GPGSV,3,2,11,30,37,255,16,14,34,308,,17,16,041,33,04,14,090,32*7E
$GPGSV,3,3,11,02,08,121,26,22,07,268,17,15,05,170,24*49
$GPRMC,125420.000,A,4905.6989,N,00826.0304,E,0.41,54.98,100809,,*3B
$GPVTG,54.98,T,,M,0.41,N,0.8,K*5D
$GPGGA,125421.000,4905.6989,N,00826.0305,E,1,09,1.0,122.0,M,47.9,M,,0000*52
$GPGSA,A,3,15,22,04,09,02,17,26,12,27,,,,1.4,1.0,1.0*38
$GPRMC,125421.000,A,4905.6989,N,00826.0305,E,0.41,85.97,100809,,*38
$GPVTG,85.97,T,,M,0.41,N,0.8,K*5E
$GPGGA,125422.000,4905.6990,N,00826.0306,E,1,09,1.0,122.3,M,47.9,M,,0000*59
$GPGSA,A,3,15,22,04,09,02,17,26,12,27,,,,1.4,1.0,1.0*38
$GPRMC,125422.000,A,4905.6990,N,00826.0306,E,0.55,83.40,100809,,*39
$GPVTG,83.40,T,,M,0.55,N,1.0,K*5E
$GPGGA,125423.000,4905.6991,N,00826.0308,E,1,09,1.0,122.7,M,47.9,M,,0000*53
$GPGSA,A,3,15,22,04,09,02,17,26,12,27,,,,1.4,1.0,1.0*38
$GPRMC,125423.000,A,4905.6991,N,00826.0308,E,0.31,99.64,100809,,*38
$GPVTG,99.64,T,,M,0.31,N,0.6,K*56
$GPGGA,125424.000,4905.6990,N,00826.0308,E,1,09,1.0,122.7,M,47.9,M,,0000*55
$GPGSA,A,3,15,22,04,09,02,17,26,12,27,,,,1.4,1.0,1.0*38
$GPRMC,125424.000,A,4905.6990,N,00826.0308,E,0.24,90.40,100809,,*35
$GPVTG,90.40,T,,M,0.24,N,0.4,K*5F
$GPGGA,125425.000,4905.6991,N,00826.0307,E,1,09,1.0,122.9,M,47.9,M,,0000*54
$GPGSA,A,3,15,22,04,09,02,17,26,12,27,,,,1.4,1.0,1.0*38
$GPGSV,3,1,11,12,72,265,21,09,67,118,34,26,56,252,23,27,54,121,43*7A
$GPGSV,3,2,11,30,38,255,17,14,34,307,,17,16,041,32,04,14,090,32*7E
$GPGSV,3,3,11,02,08,121,26,22,07,268,16,15,04,170,24*49
$GPRMC,125425.000,A,4905.6991,N,00826.0307,E,0.24,357.56,100809,,*05
$GPVTG,357.56,T,,M,0.24,N,0.5,K*61
$GPGGA,125426.000,4905.6991,N,00826.0305,E,1,09,1.0,122.9,M,47.9,M,,0000*55
$GPGSA,A,3,15,22,04,09,02,17,26,12,27,,,,1.4,1.0,1.0*38
$GPRMC,125426.000,A,4905.6991,N,00826.0305,E,0.47,282.66,100809,,*0B
$GPVTG,282.66,T,,M,0.47,N,0.9,K*62
$GPGGA,125427.000,4905.6991,N,00826.0304,E,1,08,1.2,122.9,M,47.9,M,,0000*56
$GPGSA,A,3,22,04,09,02,17,26,12,27,,,,,1.6,1.2,1.1*3D
$GPRMC,125427.000,A,4905.6991,N,00826.0304,E,0.51,288.82,100809,,*0C
$GPVTG,288.82,T,,M,0.51,N,0.9,K*65
$GPGGA,125428.000,4905.6992,N,00826.0308,E,1,08,1.2,123.2,M,47.9,M,,0000*5C
$GPGSA,A,3,22,04,09,02,17,26,12,27,,,,,1.6,1.2,1.1*3D
$GPRMC,125428.000,A,4905.6992,N,00826.0308,E,0.48,291.99,100809,,*06
$GPVTG,291.99,T,,M,0.48,N,0.9,K*6F
$GPGGA,125429.000,4905.6993,N,00826.0308,E,1,08,1.2,123.4,M,47.9,M,,0000*5A
$GPGSA,A,3,22,04,09,02,17,26,12,27,,,,,1.6,1.2,1.1*3D
$GPRMC,125429.000,A,4905.6993,N,00826.0308,E,0.12,356.14,100809,,*06
$GPVTG,356.14,T,,M,0.12,N,0.2,K*64
$GPGGA,125430.000,4905.6994,N,00826.0312,E,1,08,1.2,123.8,M,47.9,M,,0000*52
$GPGSA,A,3,22,04,09,02,17,26,12,27,,,,,1.6,1.2,1.1*3D
$GPGSV,3,1,11,12,72,265,20,09,67,118,33,26,56,252,22,27,54,121,43*7D
$GPGSV,3,2,11,30,38,255,19,14,34,307,22,17,16,041,31,04,14,090,32*73
$GPGSV,3,3,11,02,08,121,25,22,07,268,14,15,04,170,25*49
$GPRMC,125430.000,A,4905.6994,N,00826.0312,E,0.25,61.31,100809,,*36
$GPVTG,61.31,T,,M,0.25,N,0.5,K*57
$GPGGA,125431.000,4905.6994,N,00826.0316,E,1,08,1.2,124.0,M,47.9,M,,0000*58
$GPGSA,A,3,22,04,09,02,17,26,12,27,,,,,1.6,1.2,1.1*3D
$GPRMC,125431.000,A,4905.6994,N,00826.0316,E,0.34,73.90,100809,,*3B
$GPVTG,73.90,T,,M,0.34,N,0.6,K*5C
$GPGGA,125432.000,4905.6995,N,00826.0315,E,1,05,5.1,124.2,M,47.9,M,,0000*51
$GPGSA,A,3,04,09,02,17,27,,,,,,,,6.3,5.1,3.6*3A
$GPRMC,125432.000,A,4905.6995,N,00826.0315,E,0.19,309.27,100809,,*07
$GPVTG,309.27,T,,M,0.19,N,0.3,K*64
$GPGGA,125433.000,4905.6996,N,00826.0312,E,1,05,5.1,124.2,M,47.9,M,,0000*54
$GPGSA,A,3,04,09,02,17,27,,,,,,,,6.3,5.1,3.6*3A
$GPRMC,125433.000,A,4905.6996,N,00826.0312,E,0.61,290.41,100809,,*0C
$GPVTG,290.41,T,,M,0.61,N,1.1,K*69
$GPGGA,125434.000,4905.6996,N,00826.0308,E,1,05,5.1,124.2,M,47.9,M,,0000*58
$GPGSA,A,3,04,09,02,17,27,,,,,,,,6.3,5.1,3.6*3A
$GPRMC,125434.000,A,4905.6996,N,00826.0308,E,0.82,283.78,100809,,*05
$GPVTG,283.78,T,,M,0.82,N,1.5,K*68
$GPGGA,125435.000,4905.6997,N,00826.0302,E,1,05,5.1,124.0,M,47.9,M,,0000*50
$GPGSA,A,3,04,09,02,17,27,,,,,,,,6.3,5.1,3.6*3A
$GPGSV,3,1,11,12,72,265,,09,67,118,32,26,56,252,16,27,54,121,43*79
$GPGSV,3,2,11,30,38,255,20,14,34,307,23,17,16,041,25,04,14,090,32*7D
$GPGSV,3,3,11,02,08,121,26,22,07,268,,15,04,170,25*4F
$GPRMC,125435.000,A,4905.6997,N,00826.0302,E,1.06,282.94,100809,,*01
$GPVTG,282.94,T,,M,1.06,N,2.0,K*60
$GPGGA,125436.000,4905.6997,N,00826.0295,E,1,05,5.1,123.8,M,47.9,M,,0000*53
$GPGSA,A,3,04,09,02,17,27,,,,,,,,6.3,5.1,3.6*3A
$GPRMC,125436.000,A,4905.6997,N,00826.0295,E,1.27,279.60,100809,,*01
$GPVTG,279.60,T,,M,1.27,N,2.3,K*6F
$GPGGA,125437.000,4905.6996,N,00826.0291,E,1,05,5.1,123.8,M,47.9,M,,0000*57
$GPGSA,A,3,04,09,02,17,27,,,,,,,,6.3,5.1,3.6*3A
$GPRMC,125437.000,A,4905.6996,N,00826.0291,E,0.78,274.99,100809,,*05
$GPVTG,274.99,T,,M,0.78,N,1.4,K*6B
$GPGGA,125438.000,4905.7004,N,00826.0302,E,1,06,1.6,124.6,M,47.9,M,,0000*59
$GPGSA,A,3,04,09,02,17,26,27,,,,,,,2.5,1.6,1.9*32
$GPRMC,125438.000,A,4905.7004,N,00826.0302,E,0.46,330.97,100809,,*00
$GPVTG,330.97,T,,M,0.46,N,0.8,K*64
$GPGGA,125439.000,4905.7010,N,00826.0301,E,1,05,5.1,124.9,M,47.9,M,,0000*51
$GPGSA,A,3,04,09,02,17,27,,,,,,,,6.3,5.1,3.6*3A
$GPRMC,125439.000,A,4905.7010,N,00826.0301,E,0.20,13.62,100809,,*3F
$GPVTG,13.62,T,,M,0.20,N,0.4,K*50
$GPGGA,125440.000,4905.7011,N,00826.0300,E,1,05,5.1,125.3,M,47.9,M,,0000*54
$GPGSA,A,3,04,09,02,17,27,,,,,,,,6.3,5.1,3.6*3A
$GPGSV,3,1,11,12,72,265,,09,67,118,25,26,56,252,17,27,54,121,43*7E
$GPGSV,3,2,11,30,38,255,18,14,34,307,23,17,16,041,24,04,14,090,33*76
$GPGSV,3,3,11,02,08,121,27,22,07,268,,15,04,170,25*4E
$GPRMC,125440.000,A,4905.7011,N,00826.0300,E,0.44,27.17,100809,,*36
$GPVTG,27.17,T,,M,0.44,N,0.8,K*5B
$GPGGA,125441.000,4905.7016,N,00826.0300,E,1,05,5.1,125.7,M,47.9,M,,0000*56
$GPGSA,A,3,04,09,02,17,27,,,,,,,,6.3,5.1,3.6*3A
$GPRMC,125441.000,A,4905.7016,N,00826.0300,E,0.94,20.81,100809,,*35
$GPVTG,20.81,T,,M,0.94,N,1.7,K*50
$GPGGA,125442.000,4905.7021,N,00826.0299,E,1,04,5.3,125.9,M,47.9,M,,0000*5D
$GPGSA,A,3,04,02,17,27,,,,,,,,,6.5,5.3,3.6*37
$GPRMC,125442.000,A,4905.7021,N,00826.0299,E,0.68,358.23,100809,,*04
$GPVTG,358.23,T,,M,0.68,N,1.3,K*63
$GPGGA,125443.000,4905.7025,N,00826.0297,E,1,05,2.4,126.3,M,47.9,M,,0000*5E
$GPGSA,A,3,12,04,02,17,27,,,,,,,,3.7,2.4,2.8*3C
$GPRMC,125443.000,A,4905.7025,N,00826.0297,E,0.61,351.91,100809,,*06
$GPVTG,351.91,T,,M,0.61,N,1.1,K*68
$GPGGA,125444.000,4905.7031,N,00826.0293,E,1,05,2.4,126.6,M,47.9,M,,0000*5D
$GPGSA,A,3,12,04,02,17,27,,,,,,,,3.7,2.4,2.8*3C
$GPRMC,125444.000,A,4905.7031,N,00826.0293,E,0.84,15.20,100809,,*32
$GPVTG,15.20,T,,M,0.84,N,1.6,K*5D
$GPGGA,125445.000,4905.7035,N,00826.0297,E,1,05,2.4,127.2,M,47.9,M,,0000*59
$GPGSA,A,3,12,04,02,17,27,,,,,,,,3.7,2.4,2.8*3C
$GPGSV,3,1,11,12,72,265,17,09,67,118,16,26,56,252,16,27,54,121,42*78
$GPGSV,3,2,11,30,38,255,,14,34,307,17,17,16,041,19,04,14,090,33*76
$GPGSV,3,3,11,02,08,121,28,22,07,268,,15,04,170,25*41
$GPRMC,125445.000,A,4905.7035,N,00826.0297,E,0.51,87.32,100809,,*33
$GPVTG,87.32,T,,M,0.51,N,0.9,K*53
$GPGGA,125446.000,4905.7040,N,00826.0298,E,1,05,2.4,127.9,M,47.9,M,,0000*5C
$GPGSA,A,3,12,04,02,17,27,,,,,,,,3.7,2.4,2.8*3C
$GPRMC,125446.000,A,4905.7040,N,00826.0298,E,0.72,47.79,100809,,*3F
$GPVTG,47.79,T,,M,0.72,N,1.3,K*5A
$GPGGA,125447.000,4905.7045,N,00826.0297,E,1,05,2.4,128.5,M,47.9,M,,0000*54
$GPGSA,A,3,12,04,02,17,27,,,,,,,,3.7,2.4,2.8*3C
$GPRMC,125447.000,A,4905.7045,N,00826.0297,E,1.22,38.41,100809,,*33
$GPVTG,38.41,T,,M,1.22,N,2.3,K*5E
$GPGGA,125448.000,4905.7053,N,00826.0300,E,1,05,2.4,129.0,M,47.9,M,,0000*57
$GPGSA,A,3,12,04,02,17,27,,,,,,,,3.7,2.4,2.8*3C
$GPRMC,125448.000,A,4905.7053,N,00826.0300,E,1.65,31.58,100809,,*36
$GPVTG,31.58,T,,M,1.65,N,3.1,K*5F
$GPGGA,125449.000,4905.7058,N,00826.0314,E,1,05,2.9,130.6,M,47.9,M,,0000*5B
$GPGSA,A,3,12,04,02,26,27,,,,,,,,3.9,2.9,2.5*30
$GPRMC,125449.000,A,4905.7058,N,00826.0314,E,1.77,28.06,100809,,*39
$GPVTG,28.06,T,,M,1.77,N,3.3,K*5D
$GPGGA,125450.000,4905.7062,N,00826.0315,E,1,04,3.4,131.0,M,47.9,M,,0000*51
$GPGSA,A,3,12,04,02,27,,,,,,,,,4.5,3.4,3.0*37
$GPGSV,3,1,11,12,72,265,18,09,67,118,14,26,56,252,15,27,54,121,42*76
$GPGSV,3,2,11,30,38,255,,14,34,307,16,17,16,041,18,04,14,090,33*76
$GPGSV,3,3,11,02,08,121,28,22,07,268,12,15,04,170,25*42
$GPRMC,125450.000,A,4905.7062,N,00826.0315,E,1.79,14.95,100809,,*32
$GPVTG,14.95,T,,M,1.79,N,3.3,K*56
$GPGGA,125451.000,4905.7062,N,00826.0314,E,1,04,3.4,131.3,M,47.9,M,,0000*52
$GPGSA,A,3,12,04,02,27,,,,,,,,,4.5,3.4,3.0*37
$GPRMC,125451.000,A,4905.7062,N,00826.0314,E,0.75,342.40,100809,,*07
$GPVTG,342.40,T,,M,0.75,N,1.4,K*66
$GPGGA,125452.000,4905.7069,N,00826.0315,E,1,07,1.6,131.8,M,47.9,M,,0000*53
$GPGSA,A,3,12,04,09,02,17,26,27,,,,,,2.5,1.6,1.9*31
$GPRMC,125452.000,A,4905.7069,N,00826.0315,E,0.39,332.65,100809,,*06
$GPVTG,332.65,T,,M,0.39,N,0.7,K*6C
$GPGGA,125453.000,4905.7071,N,00826.0319,E,1,06,2.2,133.4,M,47.9,M,,0000*5F
$GPGSA,A,3,12,04,09,02,17,27,,,,,,,3.2,2.2,2.3*3D
$GPRMC,125453.000,A,4905.7071,N,00826.0319,E,0.38,186.12,100809,,*0E
$GPVTG,186.12,T,,M,0.38,N,0.7,K*60
$GPGGA,125454.000,4905.7068,N,00826.0317,E,1,05,5.1,133.5,M,47.9,M,,0000*58
$GPGSA,A,3,04,09,02,17,27,,,,,,,,6.3,5.1,3.6*3A
$GPRMC,125454.000,A,4905.7068,N,00826.0317,E,0.63,187.37,100809,,*07
$GPVTG,187.37,T,,M,0.63,N,1.2,K*6C
$GPGGA,125455.000,4905.7067,N,00826.0308,E,1,07,1.6,132.8,M,47.9,M,,0000*55
$GPGSA,A,3,12,04,09,02,17,26,27,,,,,,2.5,1.6,1.9*31
$GPGSV,3,1,11,12,72,265,19,09,67,118,24,26,56,252,16,27,54,121,42*77
$GPGSV,3,2,11,30,38,255,,14,34,307,,17,16,041,19,04,14,090,33*70
$GPGSV,3,3,11,02,08,121,29,22,07,268,,15,04,170,25*40
$GPRMC,125455.000,A,4905.7067,N,00826.0308,E,0.10,146.89,100809,,*0B
$GPVTG,146.89,T,,M,0.10,N,0.2,K*61
$GPGGA,125456.000,4905.7063,N,00826.0302,E,1,07,1.6,132.4,M,47.9,M,,0000*54
$GPGSA,A,3,12,04,09,02,17,26,27,,,,,,2.5,1.6,1.9*31
$GPRMC,125456.000,A,4905.7063,N,00826.0302,E,0.43,34.64,100809,,*37
$GPVTG,34.64,T,,M,0.43,N,0.8,K*5A
$GPGGA,125457.000,4905.7063,N,00826.0301,E,1,08,1.2,132.2,M,47.9,M,,0000*5B
$GPGSA,A,3,12,04,22,09,02,17,26,27,,,,,1.6,1.2,1.1*3D
$GPRMC,125457.000,A,4905.7063,N,00826.0301,E,0.73,28.55,100809,,*39
$GPVTG,28.55,T,,M,0.73,N,1.4,K*5B
$GPGGA,125458.000,4905.7062,N,00826.0297,E,1,08,1.2,131.9,M,47.9,M,,0000*53
$GPGSA,A,3,12,04,22,09,02,17,26,27,,,,,1.6,1.2,1.1*3D
$GPRMC,125458.000,A,4905.7062,N,00826.0297,E,0.85,17.92,100809,,*37
$GPVTG,17.92,T,,M,0.85,N,1.6,K*57
$GPGGA,125459.000,4905.7061,N,00826.0294,E,1,08,1.2,131.6,M,47.9,M,,0000*5D
$GPGSA,A,3,12,04,22,09,02,17,26,27,,,,,1.6,1.2,1.1*3D
$GPRMC,125459.000,A,4905.7061,N,00826.0294,E,0.46,327.05,100809,,*07
$GPVTG,327.05,T,,M,0.46,N,0.8,K*69
$GPGGA,125500.000,4905.7060,N,00826.0294,E,1,08,1.2,131.3,M,47.9,M,,0000*54
$GPGSA,A,3,12,04,22,09,02,17,26,27,,,,,1.6,1.2,1.1*3D
$GPGSV,3,1,11,12,72,265,19,09,67,118,28,26,56,252,17,27,54,121,42*7A
$GPGSV,3,2,11,30,38,255,,14,34,307,,17,16,041,26,04,14,090,33*7C
$GPGSV,3,3,11,02,08,121,30,22,07,268,18,15,04,170,26*42
$GPRMC,125500.000,A,4905.7060,N,00826.0294,E,0.39,274.24,100809,,*07
$GPVTG,274.24,T,,M,0.39,N,0.7,K*6A
$GPGGA,125501.000,4905.7058,N,00826.0299,E,1,08,1.2,131.4,M,47.9,M,,0000*54
$GPGSA,A,3,12,04,22,09,02,17,26,27,,,,,1.6,1.2,1.1*3D
$GPRMC,125501.000,A,4905.7058,N,00826.0299,E,0.12,267.81,100809,,*04
$GPVTG,267.81,T,,M,0.12,N,0.2,K*6B
$GPGGA,125502.000,4905.7057,N,00826.0302,E,1,07,1.6,131.7,M,47.9,M,,0000*53
$GPGSA,A,3,12,04,09,02,17,26,27,,,,,,2.5,1.6,1.9*31
$GPRMC,125502.000,A,4905.7057,N,00826.0302,E,0.28,92.84,100809,,*3F
$GPVTG,92.84,T,,M,0.28,N,0.5,K*58
$GPGGA,125503.000,4905.7055,N,00826.0309,E,1,08,1.2,131.9,M,47.9,M,,0000*5E
$GPGSA,A,3,12,04,22,09,02,17,26,27,,,,,1.6,1.2,1.1*3D
$GPRMC,125503.000,A,4905.7055,N,00826.0309,E,0.41,102.11,100809,,*0C
$GPVTG,102.11,T,,M,0.41,N,0.8,K*6E
$GPGGA,125504.000,4905.7053,N,00826.0312,E,1,08,1.2,132.0,M,47.9,M,,0000*5F
$GPGSA,A,3,12,04,22,09,02,17,26,27,,,,,1.6,1.2,1.1*3D
$GPRMC,125504.000,A,4905.7053,N,00826.0312,E,0.36,82.54,100809,,*3F
$GPVTG,82.54,T,,M,0.36,N,0.7,K*59
$GPGGA,125505.000,4905.7052,N,00826.0311,E,1,08,1.2,132.0,M,47.9,M,,0000*5C
$GPGSA,A,3,12,04,22,09,02,17,26,27,,,,,1.6,1.2,1.1*3D
$GPGSV,3,1,11,12,72,265,21,09,67,118,32,26,56,252,18,27,54,121,42*75
$GPGSV,3,2,11,30,38,255,,14,34,307,,17,16,041,27,04,14,090,34*7A
$GPGSV,3,3,11,02,08,121,31,22,07,268,19,15,04,170,26*42
$GPRMC,125505.000,A,4905.7052,N,00826.0311,E,0.14,45.71,100809,,*30
$GPVTG,45.71,T,,M,0.14,N,0.3,K*51
$GPGGA,125506.000,4905.7051,N,00826.0308,E,1,08,1.2,131.8,M,47.9,M,,0000*5F
$GPGSA,A,3,12,04,22,09,02,17,26,27,,,,,1.6,1.2,1.1*3D
$GPRMC,125506.000,A,4905.7051,N,00826.0308,E,0.38,293.19,100809,,*01
$GPVTG,293.19,T,,M,0.38,N,0.7,K*6C
$GPGGA,125507.000,4905.7050,N,00826.0304,E,1,08,1.2,131.5,M,47.9,M,,0000*5E
$GPGSA,A,3,12,04,22,09,02,17,26,27,,,,,1.6,1.2,1.1*3D
$GPRMC,125507.000,A,4905.7050,N,00826.0304,E,0.38,282.88,100809,,*05
$GPVTG,282.88,T,,M,0.38,N,0.7,K*64
$GPGGA,125508.000,4905.7049,N,00826.0300,E,1,08,1.2,131.3,M,47.9,M,,0000*5B
$GPGSA,A,3,12,04,22,09,02,17,26,27,,,,,1.6,1.2,1.1*3D
$GPRMC,125508.000,A,4905.7049,N,00826.0300,E,0.52,279.04,100809,,*0A
$GPVTG,279.04,T,,M,0.52,N,1.0,K*6E
$GPGGA,125509.000,4905.7048,N,00826.0302,E,1,08,1.2,131.3,M,47.9,M,,0000*59
$GPGSA,A,3,12,04,22,09,02,17,26,27,,,,,1.6,1.2,1.1*3D
$GPRMC,125509.000,A,4905.7048,N,00826.0302,E,0.39,286.55,100809,,*01
$GPVTG,286.55,T,,M,0.39,N,0.7,K*61
$GPGGA,125510.000,4905.7045,N,00826.0293,E,1,08,1.2,130.0,M,47.9,M,,0000*57
$GPGSA,A,3,12,04,22,09,02,17,26,27,,,,,1.6,1.2,1.1*3D
$GPGSV,3,1,11,12,72,265,22,09,67,118,33,26,56,252,18,27,54,121,41*74
$GPGSV,3,2,11,30,38,255,,14,34,307,20,17,16,041,29,04,14,090,34*76
$GPGSV,3,3,11,02,08,121,31,22,07,268,19,15,04,170,27*43
$GPRMC,125510.000,A,4905.7045,N,00826.0293,E,0.24,273.67,100809,,*0A
$GPVTG,273.67,T,,M,0.24,N,0.4,K*65
$GPGGA,125511.000,4905.7044,N,00826.0295,E,1,08,1.2,129.9,M,47.9,M,,0000*50
$GPGSA,A,3,12,04,22,09,02,17,26,27,,,,,1.6,1.2,1.1*3D
$GPRMC,125511.000,A,4905.7044,N,00826.0295,E,0.31,278.38,100809,,*09
$GPVTG,278.38,T,,M,0.31,N,0.6,K*62
$GPGGA,125512.000,4905.7043,N,00826.0297,E,1,08,1.2,129.9,M,47.9,M,,0000*56
$GPGSA,A,3,12,04,22,09,02,17,26,27,,,,,1.6,1.2,1.1*3D
$GPRMC,125512.000,A,4905.7043,N,00826.0297,E,0.24,270.69,100809,,*07
$GPVTG,270.69,T,,M,0.24,N,0.4,K*68
$GPGGA,125513.000,4905.7042,N,00826.0300,E,1,08,1.2,129.9,M,47.9,M,,0000*59
$GPGSA,A,3,12,04,22,09,02,17,26,27,,,,,1.6,1.2,1.1*3D
$GPRMC,125513.000,A,4905.7042,N,00826.0300,E,0.37,276.63,100809,,*06
$GPVTG,276.63,T,,M,0.37,N,0.7,K*65
$GPGGA,125514.000,4905.7041,N,00826.0300,E,1,08,1.2,129.9,M,47.9,M,,0000*5D
$GPGSA,A,3,12,04,22,09,02,17,26,27,,,,,1.6,1.2,1.1*3D
$GPRMC,125514.000,A,4905.7041,N,00826.0300,E,0.06,230.14,100809,,*02
$GPVTG,230.14,T,,M,0.06,N,0.1,K*63
$GPGGA,125515.000,4905.7039,N,00826.0299,E,1,08,1.2,129.8,M,47.9,M,,0000*53
$GPGSA,A,3,12,04,22,09,02,17,26,27,,,,,1.6,1.2,1.1*3D
$GPGSV,3,1,11,12,72,265,23,09,67,118,34,26,56,252,19,27,54,121,41*73
$GPGSV,3,2,11,30,38,255,,14,34,307,15,17,16,041,30,04,14,090,35*79
$GPGSV,3,3,11,02,08,121,31,22,07,268,19,15,04,170,27*43
$GPRMC,125515.000,A,4905.7039,N,00826.0299,E,0.41,276.45,100809,,*08
$GPVTG,276.45,T,,M,0.41,N,0.8,K*6F
$GPGGA,125516.000,4905.7037,N,00826.0296,E,1,08,1.2,129.7,M,47.9,M,,0000*5E
$GPGSA,A,3,12,04,22,09,02,17,26,27,,,,,1.6,1.2,1.1*3D
$GPRMC,125516.000,A,4905.7037,N,00826.0296,E,0.61,275.05,100809,,*0F
$GPVTG,275.05,T,,M,0.61,N,1.1,K*62
$GPGGA,125517.000,4905.7036,N,00826.0296,E,1,08,1.2,129.7,M,47.9,M,,0000*5E
$GPGSA,A,3,12,04,22,09,02,17,26,27,,,,,1.6,1.2,1.1*3D
$GPRMC,125517.000,A,4905.7036,N,00826.0296,E,0.23,293.85,100809,,*09
$GPVTG,293.85,T,,M,0.23,N,0.4,K*60
$GPGGA,125518.000,4905.7034,N,00826.0294,E,1,08,1.2,129.6,M,47.9,M,,0000*50
$GPGSA,A,3,12,04,22,09,02,17,26,27,,,,,1.6,1.2,1.1*3D
$GPRMC,125518.000,A,4905.7034,N,00826.0294,E,0.08,286.82,100809,,*0C
$GPVTG,286.82,T,,M,0.08,N,0.2,K*6C
$GPGGA,125519.000,4905.7032,N,00826.0296,E,1,08,1.2,129.5,M,47.9,M,,0000*56
$GPGSA,A,3,12,04,22,09,02,17,26,27,,,,,1.6,1.2,1.1*3D
$GPRMC,125519.000,A,4905.7032,N,00826.0296,E,0.31,272.98,100809,,*03
$GPVTG,272.98,T,,M,0.31,N,0.6,K*62
$GPGGA,125520.000,4905.7030,N,00826.0297,E,1,08,1.2,129.5,M,47.9,M,,0000*5F
$GPGSA,A,3,12,04,22,09,02,17,26,27,,,,,1.6,1.2,1.1*3D
$GPGSV,3,1,11,12,72,265,23,09,67,118,35,26,56,252,17,27,54,121,41*7C
$GPGSV,3,2,11,30,38,255,,14,34,307,,17,16,041,31,04,14,090,35*7C
$GPGSV,3,3,11,02,08,121,31,22,07,268,19,15,04,170,28*4C
$GPRMC,125520.000,A,4905.7030,N,00826.0297,E,0.22,273.18,100809,,*01
$GPVTG,273.18,T,,M,0.22,N,0.4,K*6B
$GPGGA,125521.000,4905.7028,N,00826.0298,E,1,08,1.2,129.5,M,47.9,M,,0000*58
$GPGSA,A,3,12,04,22,09,02,17,26,27,,,,,1.6,1.2,1.1*3D
$GPRMC,125521.000,A,4905.7028,N,00826.0298,E,0.05,278.01,100809,,*00
$GPVTG,278.01,T,,M,0.05,N,0.1,K*68
$GPGGA,125522.000,4905.7024,N,00826.0302,E,1,08,1.2,129.5,M,47.9,M,,0000*55
$GPGSA,A,3,12,04,22,09,02,17,26,27,,,,,1.6,1.2,1.1*3D
$GPRMC,125522.000,A,4905.7024,N,00826.0302,E,0.36,266.58,100809,,*0E
$GPVTG,266.58,T,,M,0.36,N,0.7,K*6D
$GPGGA,125523.000,4905.7022,N,00826.0306,E,1,08,1.2,129.6,M,47.9,M,,0000*55
$GPGSA,A,3,12,04,22,09,02,17,26,27,,,,,1.6,1.2,1.1*3D
$GPRMC,125523.000,A,4905.7022,N,00826.0306,E,0.06,91.04,100809,,*3D
$GPVTG,91.04,T,,M,0.06,N,0.1,K*5B
$GPGGA,125524.000,4905.7019,N,00826.0309,E,1,08,1.2,129.7,M,47.9,M,,0000*54
$GPGSA,A,3,12,04,22,09,02,17,26,27,,,,,1.6,1.2,1.1*3D
$GPRMC,125524.000,A,4905.7019,N,00826.0309,E,0.17,273.85,100809,,*0A
$GPVTG,273.85,T,,M,0.17,N,0.3,K*6E
$GPGGA,125525.000,4905.7016,N,00826.0314,E,1,08,1.2,129.8,M,47.9,M,,0000*59
$GPGSA,A,3,12,04,22,09,02,17,26,27,,,,,1.6,1.2,1.1*3D
$GPGSV,3,1,11,12,72,265,24,09,67,118,36,26,56,252,16,27,54,121,41*79
$GPGSV,3,2,11,30,38,255,,14,34,307,,17,16,041,32,04,14,090,36*7C
$GPGSV,3,3,11,02,08,121,32,22,07,268,19,15,04,170,28*4F
$GPRMC,125525.000,A,4905.7016,N,00826.0314,E,0.28,277.61,100809,,*0A
$GPVTG,277.61,T,,M,0.28,N,0.5,K*6A
$GPGGA,125526.000,4905.7014,N,00826.0316,E,1,08,1.2,130.0,M,47.9,M,,0000*5A
$GPGSA,A,3,12,04,22,09,02,17,26,27,,,,,1.6,1.2,1.1*3D
$GPRMC,125526.000,A,4905.7014,N,00826.0316,E,0.08,279.71,100809,,*04
$GPVTG,279.71,T,,M,0.08,N,0.1,K*63
$GPGGA,125527.000,4905.7016,N,00826.0317,E,1,08,1.2,130.1,M,47.9,M,,0000*59
$GPGSA,A,3,12,04,22,09,02,17,26,27,,,,,1.6,1.2,1.1*3D
$GPRMC,125527.000,A,4905.7016,N,00826.0317,E,0.12,343.74,100809,,*00
